$GPGGA,205331.00,3006.4050,N,3127.7960,E,1,04,5.76,277.8,M,15.2,M,,*5A
$GPGSA,A,3,09,04,16,20,,,,,,,,,6.37,5.76,2.72*0B
$GPGSV,2,1,07,03,23,141,,04,33,068,29,09,58,017,39,11,23,294,*7C
$GPGSV,2,2,07,14,07,189,16,16,17,049,32,20,13,319,21*4E
$GPGLL,3006.4050,N,3127.7960,E,205331.00,A,A*63
$GPRMC,205332.00,A,3006.4642,N,3127.7680,E,0.413,,150524,,,A*7A
$GPVTG,,T,,M,0.413,N,0.765,K,A*21
$GPGGA,205332.00,3006.4642,N,3127.7680,E,1,04,5.76,276.4,M,15.2,M,,*56
$GPGSA,A,3,09,04,16,20,,,,,,,,,6.37,5.76,2.72*0B
$GPGSV,2,1,07,03,23,141,,04,33,068,29,09,58,017,39,11,23,294,*7C
$GPGSV,2,2,07,14,07,189,15,16,17,049,33,20,13,319,21*4C
$GPGLL,3006.4642,N,3127.7680,E,205332.00,A,A*62
$GPRMC,205333.00,A,3006.4540,N,3127.7357,E,0.291,,150524,,,A*70
$GPVTG,,T,,M,0.291,N,0.539,K,A*26
$GPGGA,205333.00,3006.4540,N,3127.7357,E,1,04,5.75,276.8,M,15.2,M,,*5F
$GPGSA,A,3,09,04,16,20,,,,,,,,,6.36,5.75,2.72*09
$GPGSV,2,1,07,03,23,141,,04,33,068,29,09,58,017,37,11,23,294,*72
$GPGSV,2,2,07,14,07,189,16,16,17,049,32,20,13,319,21*4E
$GPGLL,3006.4540,N,3127.7357,E,205333.00,A,A*64
$GPRMC,205334.00,A,3006.3901,N,3127.7630,E,0.393,,150524,,,A*7F
$GPVTG,,T,,M,0.393,N,0.728,K,A*27
$GPGGA,205334.00,3006.3901,N,3127.7630,E,1,04,5.75,277.0,M,15.2,M,,*5A
$GPGSA,A,3,09,04,16,20,,,,,,,,,6.36,5.75,2.72*09
$GPGSV,2,1,07,03,23,141,,04,33,068,28,09,58,017,34,11,23,294,*70
$GPGSV,2,2,07,14,07,189,15,16,17,049,31,20,13,319,21*4E
$GPGLL,3006.3901,N,3127.7630,E,205334.00,A,A*68
$GNRMC,205335.00,A,3006.01189,N,03138.45391,E,0.326,,150524,,,A*75
$GNVTG,,T,,M,0.326,N,0.604,K,A*26
$GNGGA,205335.00,3006.01189,N,03138.45391,E,1,04,5.75,276.0,M,15.2,M,,*5F
$GNGSA,A,3,09,04,16,20,,,,,,,,,6.36,5.75,2.72*09
$GNGSV,2,1,07,03,23,141,,04,33,068,27,09,58,017,34,11,23,294,*7F
$GNGSV,2,2,07,14,07,189,15,16,17,049,31,20,13,319,20*4F
$GNGLL,3006.01189,N,03138.45391,E,205335.00,A,A*6C
$GNRMC,205336.00,A,3006.01112,N,03138.45350,E,0.596,,150524,,,A*74
$GNVTG,,T,,M,0.596,N,1.103,K,A*2A
$GNGGA,205336.00,3006.01112,N,03138.45350,E,1,04,5.74,275.1,M,15.2,M,,*50
$GNGSA,A,3,09,04,16,20,,,,,,,,,6.36,5.74,2.72*08
$GNGSV,2,1,07,03,23,141,,04,33,068,26,09,58,018,37,11,23,294,*72
$GNGSV,2,2,07,14,07,189,13,16,17,049,33,20,13,319,18*40
$GNGLL,3006.01112,N,03138.45350,E,205336.00,A,A*60
$GNRMC,205337.00,A,3006.01036,N,03138.45305,E,0.952,,150524,,,A*76
$GNVTG,,T,,M,0.952,N,1.763,K,A*2E
$GNGGA,205337.00,3006.01036,N,03138.45305,E,1,04,5.74,274.1,M,15.2,M,,*57
$GNGSA,A,3,09,04,16,20,,,,,,,,,6.35,5.74,2.72*0B
$GNGSV,2,1,07,03,23,141,,04,33,068,28,09,58,018,38,11,23,294,*73
$GNGSV,2,2,07,14,07,189,12,16,17,049,36,20,13,319,19*45
$GNGLL,3006.01036,N,03138.45305,E,205337.00,A,A*66
$GNRMC,205338.00,A,3006.00980,N,03138.45254,E,0.730,,150524,,,A*73
$GNVTG,,T,,M,0.730,N,1.352,K,A*22
$GNGGA,205338.00,3006.00980,N,03138.45254,E,1,04,5.74,273.1,M,15.2,M,,*5F
$GNGSA,A,3,09,04,16,20,,,,,,,,,6.35,5.74,2.72*0B
$GNGSV,2,1,07,03,23,141,,04,33,068,28,09,58,018,36,11,23,293,*7A
$GNGSV,2,2,07,14,07,189,13,16,17,049,33,20,13,319,18*40
$GNGLL,3006.00980,N,03138.45254,E,205338.00,A,A*69
$GNRMC,205339.00,A,3006.00928,N,03138.45224,E,0.654,,150524,,,A*74
$GNVTG,,T,,M,0.654,N,1.212,K,A*24
$GNGGA,205339.00,3006.00928,N,03138.45224,E,1,04,5.73,272.4,M,15.2,M,,*58
$GNGSA,A,3,09,04,16,20,,,,,,,,,6.35,5.73,2.72*0C
$GNGSV,2,1,07,03,23,141,,04,33,068,30,09,58,018,36,11,23,293,*73
$GNGSV,2,2,07,14,07,189,13,16,17,049,34,20,13,319,16*49
$GNGLL,3006.00928,N,03138.45224,E,205339.00,A,A*6D
$GNRMC,205340.00,A,3006.00903,N,03138.45216,E,0.461,,150524,,,A*76
$GNVTG,,T,,M,0.461,N,0.854,K,A*29
$GNGGA,205340.00,3006.00903,N,03138.45216,E,1,04,5.73,272.2,M,15.2,M,,*58
$GNGSA,A,3,09,04,16,20,,,,,,,,,6.34,5.73,2.72*0D
$GNGSV,2,1,07,03,23,141,,04,33,068,31,09,58,018,37,11,23,293,05*76
$GNGSV,2,2,07,14,07,189,14,16,17,049,35,20,13,319,15*4C
$GNGLL,3006.00903,N,03138.45216,E,205340.00,A,A*6B
$GNRMC,205341.00,A,3006.00853,N,03138.45209,E,0.532,,150524,,,A*7A
$GNVTG,,T,,M,0.532,N,0.986,K,A*20
$GNGGA,205341.00,3006.00853,N,03138.45209,E,1,04,5.73,271.8,M,15.2,M,,*5A
$GNGSA,A,3,09,04,16,20,,,,,,,,,6.34,5.73,2.72*0D
$GNGSV,2,1,07,03,23,141,,04,33,068,32,09,58,018,37,11,23,293,08*78
$GNGSV,2,2,07,14,08,189,15,16,17,049,33,20,13,319,15*44
$GNGLL,3006.00853,N,03138.45209,E,205341.00,A,A*60
$GNRMC,205342.00,A,3006.00814,N,03138.45193,E,0.523,,150524,,,A*7A
$GNVTG,,T,,M,0.523,N,0.968,K,A*20
$GNGGA,205342.00,3006.00814,N,03138.45193,E,1,04,5.72,271.4,M,15.2,M,,*57
$GNGSA,A,3,09,04,16,20,,,,,,,,,6.34,5.72,2.72*0C
$GNGSV,2,1,07,03,23,141,,04,33,068,31,09,58,018,37,11,23,293,10*72
$GNGSV,2,2,07,14,08,189,15,16,17,049,36,20,13,319,17*43
$GNGLL,3006.00814,N,03138.45193,E,205342.00,A,A*60
$GNRMC,205343.00,A,3006.00785,N,03138.45167,E,1.286,,150524,,,A*7E
$GNVTG,,T,,M,1.286,N,2.381,K,A*26
$GNGGA,205343.00,3006.00785,N,03138.45167,E,1,04,5.72,270.9,M,15.2,M,,*56
$GNGSA,A,3,09,04,16,20,,,,,,,,,6.34,5.72,2.72*0C
$GNGSV,2,1,07,03,23,141,,04,33,068,31,09,58,018,37,11,23,293,11*73
$GNGSV,2,2,07,14,08,189,16,16,17,049,37,20,13,319,18*4E
$GNGLL,3006.00785,N,03138.45167,E,205343.00,A,A*6D
$GNRMC,205344.00,A,3006.00786,N,03138.45180,E,0.534,,150524,,,A*7C
$GNVTG,,T,,M,0.534,N,0.989,K,A*29
$GNGGA,205344.00,3006.00786,N,03138.45180,E,1,04,5.72,270.8,M,15.2,M,,*5A
$GNGSA,A,3,09,04,16,20,,,,,,,,,6.33,5.72,2.72*0B
$GNGSV,2,1,07,03,23,141,,04,33,068,31,09,58,018,39,11,23,293,09*74
$GNGSV,2,2,07,14,08,189,15,16,17,049,37,20,13,319,18*4D
$GNGLL,3006.00786,N,03138.45180,E,205344.00,A,A*60
$GNRMC,205345.00,A,3006.00800,N,03138.45142,E,0.615,,150524,,,A*72
$GNVTG,,T,,M,0.615,N,1.138,K,A*2A
$GNGGA,205345.00,3006.00800,N,03138.45142,E,1,04,5.72,270.2,M,15.2,M,,*5E
$GNGSA,A,3,09,04,16,20,,,,,,,,,6.33,5.72,2.72*0B
$GNGSV,2,1,07,03,23,141,,04,33,068,30,09,58,018,37,11,23,293,08*7A
$GNGSV,2,2,07,14,08,189,16,16,17,049,35,20,13,319,17*43
$GNGLL,3006.00800,N,03138.45142,E,205345.00,A,A*6E
$GNRMC,205346.00,A,3006.00826,N,03138.45158,E,0.179,,150524,,,A*73
$GNVTG,,T,,M,0.179,N,0.332,K,A*2E
$GNGGA,205346.00,3006.00826,N,03138.45158,E,1,04,5.71,270.5,M,15.2,M,,*56
$GNGSA,A,3,09,04,16,20,,,,,,,,,6.33,5.71,2.72*08
$GNGSV,2,1,07,03,23,141,,04,33,068,30,09,58,018,37,11,23,293,08*7A
$GNGSV,2,2,07,14,08,189,16,16,17,049,35,20,13,319,19*4D
$GNGLL,3006.00826,N,03138.45158,E,205346.00,A,A*62
$GNRMC,205347.00,A,3006.00840,N,03138.45186,E,0.224,,150524,,,A*7A
$GNVTG,,T,,M,0.224,N,0.415,K,A*27
$GNGGA,205347.00,3006.00840,N,03138.45186,E,1,04,5.71,270.9,M,15.2,M,,*58
$GNGSA,A,3,09,04,16,20,,,,,,,,,6.32,5.71,2.72*09
$GNGSV,2,1,07,03,23,141,,04,33,068,29,09,58,018,37,11,23,293,08*72
$GNGSV,2,2,07,14,08,189,16,16,17,049,35,20,13,319,19*4D
$GNGLL,3006.00840,N,03138.45186,E,205347.00,A,A*60
$GNRMC,205348.00,A,3006.00811,N,03138.45156,E,0.081,,150524,,,A*71
$GNVTG,,T,,M,0.081,N,0.150,K,A*2E
$GNGGA,205348.00,3006.00811,N,03138.45156,E,1,04,5.71,270.3,M,15.2,M,,*54
$GNGSA,A,3,09,04,16,20,,,,,,,,,6.32,5.71,2.72*09
$GNGSV,2,1,07,03,23,141,,04,33,068,29,09,58,018,31,11,23,293,08*74
$GNGSV,2,2,07,14,08,189,16,16,17,049,25,20,13,319,29*4F
$GNGLL,3006.00811,N,03138.45156,E,205348.00,A,A*66
$GNRMC,205349.00,A,3006.00820,N,03138.45131,E,0.067,,150524,,,A*7B
$GNV\"$GPTXT,01,01,02,u-blox ag - www.u-blox.com*50
$GNTXT,01,01,02,HW  UBX-G60xx  00040007 FF7FFFFFp*53
$GNTXT,01,01,02,ROM CORE 7.03 (45969) Mar 17 2011 16:18:34*59
$GNTXT,01,01,02,ANTSUPERV=AC SD PDoS SR*20
$GNTXT,01,01,02,ANTSTATUS=DONTKNOW*33
$GNRMC,205349.69,V,,,,,,,150524,,,N*7C
$GNVTG,,,,,,,,,N*30
$GNGGA,205349.69,,,,,0,00,99.99,,,,,,*60
$GNGSA,A,1,,,,,,,,,,,,,99.99,99.99,99.99*30
$GNGSV,2,1,07,03,23,141,,04,33,069,,09,58,019,,11,23,293,*75
$GNGSV,2,2,07,14,08,189,,16,17,049,,20,13,319,*44
$GNGLL,,,,,205349.69,V,N*4C
$GNRMC,205350.00,V,,,,,,,150524,,,N*7B